time(ms),battery_percentage(%),battery_voltage(V),vx(m/s),vy(m/s),vz(m/s),lat(°),lon(°),alt(m),roll(rad),pitch(rad),yaw(rad)
50.0,89.0,15.967000961303711,0.009999999776482582,0.0,-0.25,47.397970799999996,8.5461634,4.496000289916992,-0.003998304913448465,-0.0019737381237025526,1.6911501690938666
100.0,85.0,15.907000541687012,0.009999999776482582,0.0,-0.25,47.397970799999996,8.5461634,4.505000114440918,-0.003992887565254484,-0.0019828897490949604,1.6909573562309448
150.0,85.0,15.907000541687012,0.009999999776482582,0.0,-0.25,47.397970799999996,8.5461634,4.519000053405762,-0.003863595255520341,-0.00202848051822873,1.690729389641634
200.0,85.0,15.907000541687012,0.009999999776482582,0.0,-0.25,47.397970799999996,8.5461634,4.534000396728516,-0.0036337113982841613,-0.002027408751934568,1.6906124768697794
250.0,85.0,15.907000541687012,0.009999999776482582,0.0,-0.25,47.397970799999996,8.5461634,4.543000221252441,-0.0033092260254040224,-0.00202054239963772,1.6905861115749878
300.0,85.0,15.907000541687012,0.019999999552965164,0.0,-0.23999999463558197,47.397970799999996,8.5461634,4.556000232696533,-0.0029299924063253893,-0.0020115318645667346,1.6906562858697114
350.0,85.0,15.907000541687012,0.019999999552965164,0.0,-0.23999999463558197,47.397970799999996,8.5461634,4.565999984741211,-0.0025258496486017835,-0.001959031050649483,1.6907401754440488
400.0,85.0,15.907000541687012,0.019999999552965164,0.0,-0.22999998927116394,47.397970799999996,8.5461634,4.580000400543213,-0.0020426683528915316,-0.0018582851490354388,1.690915944075994
450.0,85.0,15.907000541687012,0.019999999552965164,0.009999999776482582,-0.22999998927116394,47.3979709,8.5461634,4.588000297546387,-0.0015900062590952077,-0.0017556378440298354,1.691082125328015
500.0,85.0,15.907000541687012,0.019999999552965164,0.009999999776482582,-0.2199999988079071,47.3979709,8.5461634,4.599000453948975,-0.0011641279196799195,-0.0016323907019107113,1.6912634865982494
550.0,85.0,15.907000541687012,0.019999999552965164,0.009999999776482582,-0.2199999988079071,47.3979709,8.5461634,4.607000350952148,-0.0007742482881362621,-0.0015142628628088842,1.6913893209597557
600.0,85.0,15.907000541687012,0.019999999552965164,0.009999999776482582,-0.20999999344348907,47.3979709,8.5461634,4.62000036239624,-0.00030590738608003747,-0.0013455386040361042,1.6914768058015648
650.0,85.0,15.907000541687012,0.019999999552965164,0.009999999776482582,-0.19999998807907104,47.3979709,8.5461634,4.627000331878662,0.00011311432944362936,-0.001227811539469415,1.6914624247316783
700.0,85.0,15.907000541687012,0.019999999552965164,0.009999999776482582,-0.19999998807907104,47.3979709,8.5461634,4.638000011444092,0.0005049264026240947,-0.0011313817013192781,1.6912768024036997
750.0,85.0,15.907000541687012,0.019999999552965164,0.0,-0.1899999976158142,47.397971,8.5461634,4.645000457763672,0.0008800116736692859,-0.0010737754983611277,1.6909877162673717
800.0,85.0,15.907000541687012,0.019999999552965164,0.0,-0.1899999976158142,47.397971,8.5461634,4.6570000648498535,0.0012828184295843234,-0.0011505100379007999,1.690598628432111
850.0,85.0,15.907000541687012,0.019999999552965164,0.0,-0.17999999225139618,47.397971,8.5461634,4.664000034332275,0.0016505380381375671,-0.001289656303742562,1.6902124700740497
900.0,85.0,15.907000541687012,0.019999999552965164,0.0,-0.17000000178813934,47.397971,8.5461634,4.687000274658203,0.0023681416180959544,-0.0019173246215997833,1.6894015375221205
950.0,85.0,15.907000541687012,0.019999999552965164,0.0,-0.17000000178813934,47.397971,8.5461634,4.687000274658203,0.0024004894025903846,-0.001964169729204007,1.6893741069628927
1000.0,85.0,15.907000541687012,0.019999999552965164,0.0,-0.1599999964237213,47.3979711,8.5461634,4.690999984741211,0.002445435187397651,-0.002032824409645434,1.689334292704596
1050.0,85.0,15.907000541687012,0.019999999552965164,0.0,-0.1599999964237213,47.3979711,8.5461634,4.697000026702881,0.002630351153508922,-0.0022916600008375423,1.6892205757260497
1100.0,85.0,15.907000541687012,0.019999999552965164,0.0,-0.14999999105930328,47.3979711,8.5461634,4.706000328063965,0.0028032490850525608,-0.002599653020459255,1.6892021999145281
1150.0,85.0,15.907000541687012,0.019999999552965164,0.0,-0.14999999105930328,47.3979711,8.5461633,4.711000442504883,0.002951923954021112,-0.0028719313333724584,1.6893068621453682
1200.0,85.0,15.907000541687012,0.019999999552965164,0.0,-0.14999999105930328,47.3979711,8.5461633,4.7170000076293945,0.0030543071535494718,-0.0030598501176425244,1.6894726439232257
1250.0,85.0,15.907000541687012,0.019999999552965164,0.0,-0.14000000059604645,47.3979711,8.5461633,4.725000381469727,0.003217373235303134,-0.003265236533890528,1.689851079114126
1300.0,85.0,15.907000541687012,0.009999999776482582,0.0,-0.14000000059604645,47.3979711,8.5461633,4.730000019073486,0.0032721758370355958,-0.0033646085928816867,1.6901854389889854
1350.0,85.0,15.907000541687012,0.009999999776482582,0.0,-0.12999999523162842,47.3979712,8.5461633,4.736999988555908,0.0032984839154758354,-0.003432296056907683,1.6906711995718158
1400.0,85.0,15.907000541687012,0.009999999776482582,0.0,-0.12999999523162842,47.3979712,8.5461634,4.741000175476074,0.0033024222209823853,-0.00342045097176631,1.6911250022215654
1450.0,85.0,15.907000541687012,0.009999999776482582,0.009999999776482582,-0.12999999523162842,47.3979712,8.5461634,4.749000072479248,0.003338892183531284,-0.003281833437027686,1.6916163554426848
1500.0,85.0,15.907000541687012,0.009999999776482582,0.009999999776482582,-0.11999999731779099,47.3979712,8.5461634,4.754000186920166,0.0033012745129852644,-0.0030599994003051912,1.692071622831034
1550.0,85.0,15.907000541687012,0.009999999776482582,0.009999999776482582,-0.11999999731779099,47.3979712,8.5461634,4.761000156402588,0.0032447093875509017,-0.002824019921034902,1.6925404723409423
1600.0,85.0,15.907000541687012,0.0,0.009999999776482582,-0.11999999731779099,47.3979712,8.5461634,4.765000343322754,0.0031392934613163493,-0.0025181634119947325,1.6929360849208737
1650.0,85.0,15.907000541687012,0.0,0.009999999776482582,-0.10999999940395355,47.3979712,8.5461634,4.773000240325928,0.0030241801437179503,-0.00216731677547485,1.6933154522181555
1700.0,85.0,15.907000541687012,0.0,0.009999999776482582,-0.10999999940395355,47.3979712,8.5461634,4.777000427246094,0.002956911399355531,-0.0018316467762021912,1.6936217157435145
1750.0,85.0,15.907000541687012,0.0,0.009999999776482582,-0.10999999940395355,47.3979712,8.5461634,4.7829999923706055,0.0028742496359073187,-0.0015635723046815695,1.6939496840317578
1800.0,85.0,15.907000541687012,0.0,0.009999999776482582,-0.09999999403953552,47.3979712,8.5461634,4.7870001792907715,0.002782305299643959,-0.0013668849845001202,1.6942080106574955
1850.0,85.0,15.907000541687012,0.0,0.009999999776482582,-0.09999999403953552,47.3979712,8.5461635,4.794000148773193,0.0026884821864553324,-0.0011489826213888824,1.6943965624626731
1900.0,85.0,15.907000541687012,0.0,0.009999999776482582,-0.08999999612569809,47.3979712,8.5461635,4.808000087738037,0.0024876616350605935,-0.000783910374410462,1.694547430538426
1950.0,85.0,15.907000541687012,0.0,0.009999999776482582,-0.08999999612569809,47.3979712,8.5461635,4.808000087738037,0.0024876616350605935,-0.000783910374410462,1.694547430538426
2000.0,85.0,15.907000541687012,0.0,0.009999999776482582,-0.08999999612569809,47.3979712,8.5461635,4.808000087738037,0.002478920276916194,-0.0007526908573573438,1.6945333157846487
2050.0,85.0,15.907000541687012,0.0,0.009999999776482582,-0.08999999612569809,47.3979712,8.5461635,4.814000129699707,0.0024212490553767426,-0.0005568663337497557,1.6943964293046185
2100.0,82.0,15.847001075744629,0.0,0.009999999776482582,-0.08999999612569809,47.3979712,8.5461635,4.818000316619873,0.0023540193221631036,-0.00036289214143811526,1.6941820448368672
2150.0,82.0,15.847001075744629,0.0,0.009999999776482582,-0.07999999821186066,47.3979712,8.5461636,4.823000431060791,0.00217106015527466,-0.00013816448526412064,1.6938447554848086
2200.0,82.0,15.847001075744629,0.0,0.009999999776482582,-0.07999999821186066,47.3979712,8.5461636,4.827000141143799,0.0020130670833084082,4.730146489905127e-05,1.6934118586496163
2250.0,82.0,15.847001075744629,0.0,0.009999999776482582,-0.07999999821186066,47.3979712,8.5461636,4.832000255584717,0.0019004940416814304,0.0002922409679299769,1.692862981148951
2300.0,82.0,15.847001075744629,0.0,0.009999999776482582,-0.07999999821186066,47.3979712,8.5461636,4.835000038146973,0.0019098913072739924,0.0005574358965219504,1.692324223660428
2350.0,82.0,15.847001075744629,0.0,0.009999999776482582,-0.07000000029802322,47.3979712,8.5461637,4.840000152587891,0.0019838836231287236,0.000908815165259849,1.6917102318711101
2400.0,82.0,15.847001075744629,0.0,0.009999999776482582,-0.07000000029802322,47.397971299999995,8.5461637,4.843000411987305,0.002096488263786214,0.0011687910523308102,1.6911768007047674
2450.0,82.0,15.847001075744629,0.0,0.009999999776482582,-0.07000000029802322,47.397971299999995,8.5461637,4.8460001945495605,0.0022696727972362257,0.0013716353720871165,1.6907467001887195
2500.0,82.0,15.847001075744629,0.0,0.009999999776482582,-0.07000000029802322,47.397971299999995,8.5461638,4.8510003089904785,0.0025131541204169968,0.0017253302125794605,1.690191431101438
2550.0,82.0,15.847001075744629,0.0,0.009999999776482582,-0.05999999865889549,47.397971299999995,8.5461638,4.853000164031982,0.0027097430024663567,0.0019342865390523636,1.6898872981049509
2600.0,82.0,15.847001075744629,0.0,0.009999999776482582,-0.05999999865889549,47.397971299999995,8.5461638,4.857000350952148,0.0029254231605058967,0.0022251826626467157,1.6895988777588953
2650.0,82.0,15.847001075744629,0.0,0.009999999776482582,-0.05999999865889549,47.397971299999995,8.5461638,4.859000205993652,0.00310489134972714,0.0024635649686075554,1.6894549339019767
2700.0,82.0,15.847001075744629,0.0,0.0,-0.05999999865889549,47.397971299999995,8.5461639,4.863000392913818,0.003179425790512757,0.0027511460548157065,1.68941778280477
2750.0,82.0,15.847001075744629,0.0,0.0,-0.05999999865889549,47.397971299999995,8.5461639,4.865000247955322,0.003206875075091988,0.0029867531076523046,1.689552538755928
2800.0,82.0,15.847001075744629,-0.009999999776482582,0.0,-0.04999999701976776,47.397971299999995,8.5461639,4.868000030517578,0.003067098129011608,0.0031019007550616303,1.6898366980442394
2850.0,82.0,15.847001075744629,-0.009999999776482582,0.0,-0.04999999701976776,47.397971299999995,8.5461639,4.87000036239624,0.0028392262067551996,0.0031124132193606625,1.6902156658673577
2900.0,82.0,15.847001075744629,-0.009999999776482582,0.0,-0.04999999701976776,47.3979712,8.5461639,4.877000331878662,0.0018256423102190656,0.0029978616623047025,1.6916278070353723
2950.0,82.0,15.847001075744629,-0.009999999776482582,0.0,-0.04999999701976776,47.3979712,8.5461639,4.878000259399414,0.0017221137433625117,0.002975081232011517,1.6917287408406863
3000.0,82.0,15.847001075744629,-0.009999999776482582,0.0,-0.04999999701976776,47.3979712,8.5461639,4.880000114440918,0.0014011474361766954,0.002896853475733691,1.6920979881258258
3050.0,82.0,15.847001075744629,-0.009999999776482582,0.0,-0.04999999701976776,47.3979712,8.5461639,4.88100004196167,0.001062390484701039,0.0027298969421493168,1.692444731699754
3100.0,82.0,15.847001075744629,-0.009999999776482582,0.0,-0.04999999701976776,47.3979712,8.5461639,4.883000373840332,0.0007495695753434195,0.0024579962571563076,1.6927591178664378
3150.0,82.0,15.847001075744629,-0.009999999776482582,0.0,-0.03999999910593033,47.3979712,8.5461639,4.884000301361084,0.0004999662325845315,0.0023224491599010307,1.6929838886624407
3200.0,82.0,15.847001075744629,-0.009999999776482582,-0.009999999776482582,-0.03999999910593033,47.3979712,8.5461639,4.886000156402588,0.0002872978977772958,0.002128167137116222,1.6931213077746887
3250.0,82.0,15.847001075744629,-0.009999999776482582,-0.009999999776482582,-0.03999999910593033,47.3979712,8.5461639,4.888000011444092,1.9798322584366147e-05,0.0019296704798543347,1.6932067952456802
3300.0,82.0,15.847001075744629,-0.009999999776482582,-0.009999999776482582,-0.03999999910593033,47.3979711,8.5461639,4.889000415802002,-0.00027726384019947426,0.0016879251527942944,1.6931535320238786
3350.0,82.0,15.847001075744629,-0.009999999776482582,-0.009999999776482582,-0.03999999910593033,47.3979711,8.5461639,4.890000343322754,-0.0005999551228564906,0.0015375791762491505,1.6928976022431221
3400.0,82.0,15.847001075744629,-0.009999999776482582,-0.009999999776482582,-0.03999999910593033,47.3979711,8.5461639,4.891000270843506,-0.0008910533242015254,0.0014526469639419156,1.6924781543714345
3450.0,82.0,15.847001075744629,-0.009999999776482582,-0.009999999776482582,-0.03999999910593033,47.3979711,8.5461639,4.89300012588501,-0.0011645505404583745,0.0013383338950421666,1.6917941214454477
3500.0,82.0,15.847001075744629,-0.009999999776482582,-0.009999999776482582,-0.03999999910593033,47.3979711,8.5461639,4.894000053405762,-0.00150442412104929,0.0013746474228844556,1.6910517652915882
3550.0,82.0,15.847001075744629,-0.009999999776482582,-0.009999999776482582,-0.03999999910593033,47.3979711,8.5461639,4.895000457763672,-0.0017761189572139007,0.0014105110221441434,1.6903456281285536
3600.0,82.0,15.847001075744629,-0.009999999776482582,-0.009999999776482582,-0.03999999910593033,47.397971,8.5461639,4.896000385284424,-0.0022242768237720335,0.0014778368528209449,1.6892527999752396
3650.0,82.0,15.847001075744629,-0.009999999776482582,-0.009999999776482582,-0.03999999910593033,47.397971,8.5461639,4.89900016784668,-0.002637637655878136,0.0016070373563182919,1.6884101758063386
3700.0,82.0,15.847001075744629,-0.009999999776482582,-0.009999999776482582,-0.03999999910593033,47.397971,8.5461639,4.900000095367432,-0.0029829092091258036,0.0017329112491219667,1.687791523485113
3750.0,82.0,15.847001075744629,-0.009999999776482582,-0.009999999776482582,-0.03999999910593033,47.397971,8.546164,4.902000427246094,-0.0033765837151856614,0.001869671983215804,1.6872330586045234
3800.0,82.0,15.847001075744629,-0.009999999776482582,-0.009999999776482582,-0.03999999910593033,47.3979709,8.546164,4.904000282287598,-0.0037657758402506445,0.0020068796550375026,1.6869437061520864
3850.0,82.0,15.847001075744629,-0.009999999776482582,-0.009999999776482582,-0.03999999910593033,47.3979709,8.546164,4.909000396728516,-0.004547147824228544,0.0023740809354606167,1.68728232708469
3900.0,82.0,15.847001075744629,-0.009999999776482582,-0.009999999776482582,-0.03999999910593033,47.3979709,8.546164,4.909000396728516,-0.00459350971373654,0.0023919259352844237,1.6873483734797239
3950.0,82.0,15.847001075744629,-0.009999999776482582,-0.009999999776482582,-0.03999999910593033,47.3979709,8.546164,4.910000324249268,-0.004651615519473406,0.0024102479114206537,1.6874526362364006
4000.0,82.0,15.847001075744629,0.0,-0.009999999776482582,-0.03999999910593033,47.3979709,8.546164,4.9110002517700195,-0.0047704091488477525,0.0024373195680796895,1.687862363570109
4050.0,79.0,15.78700065612793,0.0,-0.009999999776482582,-0.029999999329447746,47.3979709,8.5461639,4.914000034332275,-0.004867101662066344,0.0023552864042754927,1.6886607792649149
4100.0,79.0,15.78700065612793,0.0,-0.019999999552965164,-0.029999999329447746,47.3979709,8.5461639,4.9160003662109375,-0.004916994320613297,0.002243988637102148,1.6894184485950425
4150.0,79.0,15.78700065612793,0.0,-0.019999999552965164,-0.029999999329447746,47.3979709,8.5461639,4.918000221252441,-0.004931190217580181,0.0020596816350233397,1.6901360373507643
4200.0,79.0,15.78700065612793,0.0,-0.019999999552965164,-0.029999999329447746,47.3979709,8.5461639,4.920000076293945,-0.0048639532022854365,0.0017475555142255,1.6910967727140105
4250.0,79.0,15.78700065612793,0.0,-0.019999999552965164,-0.029999999329447746,47.3979709,8.5461639,4.922000408172607,-0.004731179017485474,0.0014109947603890211,1.6919846706214428
4300.0,79.0,15.78700065612793,0.0,-0.019999999552965164,-0.029999999329447746,47.3979709,8.5461639,4.924000263214111,-0.004540861307639735,0.00105474683526474,1.692942210191381
4350.0,79.0,15.78700065612793,0.009999999776482582,-0.019999999552965164,-0.029999999329447746,47.3979709,8.5461638,4.926000118255615,-0.00428351594233104,0.0006296460530632278,1.6938227844058156
4400.0,79.0,15.78700065612793,0.009999999776482582,-0.019999999552965164,-0.019999999552965164,47.3979709,8.5461638,4.928000450134277,-0.0038260535266772806,0.00019632150938840587,1.694707220203831
4450.0,79.0,15.78700065612793,0.009999999776482582,-0.019999999552965164,-0.019999999552965164,47.3979709,8.5461638,4.929000377655029,-0.003268445070840558,-0.0001441093617174839,1.695419615795427
4500.0,79.0,15.78700065612793,0.019999999552965164,-0.019999999552965164,-0.019999999552965164,47.397971,8.5461638,4.931000232696533,-0.002613814067466561,-0.0005666575469264189,1.6960626360406268
4550.0,79.0,15.78700065612793,0.019999999552965164,-0.019999999552965164,-0.019999999552965164,47.397971,8.5461638,4.932000160217285,-0.001973800931652089,-0.0009589771957891313,1.6965173707967578
4600.0,79.0,15.78700065612793,0.019999999552965164,-0.019999999552965164,-0.019999999552965164,47.397971,8.5461638,4.934000015258789,-0.0011400294327066048,-0.0013530110595478383,1.6968591875226693
4650.0,79.0,15.78700065612793,0.019999999552965164,-0.019999999552965164,-0.019999999552965164,47.397971,8.5461637,4.935000419616699,-0.0004433644691796058,-0.0016800862525583491,1.6970240371941454
4700.0,79.0,15.78700065612793,0.019999999552965164,-0.019999999552965164,-0.019999999552965164,47.3979711,8.5461637,4.937000274658203,0.00032429802183812077,-0.0019416560051313174,1.6970513345953187
4750.0,79.0,15.78700065612793,0.019999999552965164,-0.019999999552965164,-0.009999999776482582,47.3979711,8.5461637,4.938000202178955,0.0009965189246321916,-0.0021229852862237135,1.6969262991821394
4800.0,79.0,15.78700065612793,0.019999999552965164,-0.019999999552965164,-0.009999999776482582,47.3979711,8.5461637,4.938000202178955,0.0016648963515205398,-0.0023640017549873722,1.6966760951977264
4850.0,79.0,15.78700065612793,0.019999999552965164,-0.019999999552965164,-0.009999999776482582,47.3979712,8.5461637,4.939000129699707,0.003123701745446101,-0.002803676127094544,1.6958210873297566
4900.0,79.0,15.78700065612793,0.019999999552965164,-0.019999999552965164,-0.009999999776482582,47.3979712,8.5461637,4.938000202178955,0.003232170944258537,-0.002836194260271982,1.6957209524727694
4950.0,79.0,15.78700065612793,0.019999999552965164,-0.019999999552965164,-0.009999999776482582,47.3979712,8.5461637,4.938000202178955,0.003309655408114933,-0.002854609863165285,1.6956610313482428
5000.0,79.0,15.78700065612793,0.019999999552965164,-0.009999999776482582,-0.009999999776482582,47.3979712,8.5461636,4.938000202178955,0.0038040868689476555,-0.0029851390863900947,1.695283794579833
5050.0,79.0,15.78700065612793,0.019999999552965164,-0.009999999776482582,-0.009999999776482582,47.3979712,8.5461636,4.938000202178955,0.004268019673738141,-0.0030650809925453332,1.6949236020424
5100.0,79.0,15.78700065612793,0.019999999552965164,-0.009999999776482582,-0.009999999776482582,47.397971299999995,8.5461636,4.938000202178955,0.004667021802349784,-0.0031178729596696504,1.6946164064106592
5150.0,79.0,15.78700065612793,0.019999999552965164,-0.009999999776482582,-0.009999999776482582,47.397971299999995,8.5461636,4.938000202178955,0.005167633669446631,-0.0031759808460011174,1.6942093422380406
5200.0,79.0,15.78700065612793,0.019999999552965164,-0.009999999776482582,-0.009999999776482582,47.397971299999995,8.5461636,4.938000202178955,0.0055274943520408895,-0.003175151468978045,1.693822118615543
5250.0,79.0,15.78700065612793,0.009999999776482582,-0.009999999776482582,-0.009999999776482582,47.397971299999995,8.5461636,4.938000202178955,0.005739741008839099,-0.0031357595713854903,1.693430767093356
5300.0,79.0,15.78700065612793,0.009999999776482582,-0.009999999776482582,-0.009999999776482582,47.397971299999995,8.5461636,4.938000202178955,0.005885871050535539,-0.003051875198534498,1.6930556608538183
5350.0,79.0,15.78700065612793,0.009999999776482582,0.0,-0.019999999552965164,47.397971399999996,8.5461636,4.939000129699707,0.0059683936742197675,-0.0029075360286414066,1.6926878783072783
5400.0,79.0,15.78700065612793,0.0,0.0,-0.019999999552965164,47.397971399999996,8.5461636,4.940000057220459,0.005975180573810267,-0.002752774120091478,1.6923547168549093
5450.0,79.0,15.78700065612793,0.0,0.0,-0.019999999552965164,47.397971399999996,8.5461636,4.941000461578369,0.005864257833813865,-0.0026015063101006517,1.6920228869830856
5500.0,79.0,15.78700065612793,0.0,0.0,-0.019999999552965164,47.397971399999996,8.5461636,4.942000389099121,0.005730035035022522,-0.002474679504969433,1.6917563045579687
5550.0,79.0,15.78700065612793,0.0,0.0,-0.019999999552965164,47.397971399999996,8.5461636,4.944000244140625,0.005527112562931492,-0.0022799215461695027,1.691591854360656
5600.0,79.0,15.78700065612793,0.0,0.0,-0.019999999552965164,47.397971399999996,8.5461636,4.945000171661377,0.005157431993966217,-0.002136159741278362,1.6914898552909061
5650.0,79.0,15.78700065612793,0.0,0.0,-0.019999999552965164,47.397971299999995,8.5461636,4.947000026702881,0.004602469274239785,-0.001998348046836379,1.6914215452089456
5700.0,79.0,15.78700065612793,0.0,0.0,-0.009999999776482582,47.397971299999995,8.5461636,4.948000431060791,0.004023807281629225,-0.0018772876096435622,1.691449641558446
5750.0,79.0,15.78700065612793,-0.009999999776482582,0.0,-0.009999999776482582,47.397971299999995,8.5461636,4.951000213623047,0.0034724902837934895,-0.0018336393356447344,1.6915564343181582
5800.0,79.0,15.78700065612793,-0.009999999776482582,0.0,-0.009999999776482582,47.397971299999995,8.5461636,4.952000141143799,0.0030315129393170505,-0.0018861120615348643,1.6916701512967045
5850.0,79.0,15.78700065612793,-0.009999999776482582,0.0,-0.009999999776482582,47.397971299999995,8.5461635,4.957000255584717,0.0019864450951576486,-0.0019414387130326101,1.6921199592048188
5900.0,79.0,15.78700065612793,-0.009999999776482582,0.0,-0.009999999776482582,47.397971299999995,8.5461635,4.957000255584717,0.0019308808657638298,-0.0019440674142746,1.6921503192412457
5950.0,79.0,15.78700065612793,-0.009999999776482582,0.0,-0.009999999776482582,47.397971299999995,8.5461635,4.958000183105469,0.001841464972090094,-0.0019468075573649394,1.6921878698126158
6000.0,79.0,15.78700065612793,-0.009999999776482582,0.0,-0.009999999776482582,47.397971299999995,8.5461635,4.959000110626221,0.0014944280343229482,-0.0019451827430182333,1.6924177006146897
6050.0,75.0,15.727001190185547,-0.009999999776482582,0.0,0.0,47.397971299999995,8.5461635,4.961000442504883,0.0011474908350595178,-0.001993081021602367,1.6927150425503972
6100.0,75.0,15.727001190185547,-0.009999999776482582,0.0,0.0,47.397971299999995,8.5461635,4.962000370025635,0.0008272851152377577,-0.002071661958813818,1.6929845544527131
6150.0,75.0,15.727001190185547,-0.009999999776482582,0.0,0.0,47.397971299999995,8.5461635,4.964000225067139,0.0004594282849686787,-0.0021644030327724376,1.6932731079568233
6200.0,75.0,15.727001190185547,-0.009999999776482582,0.0,0.0,47.397971299999995,8.5461635,4.966000080108643,9.874465406357443e-05,-0.0022641912106839213,1.6935246435217812
6250.0,75.0,15.727001190185547,-0.009999999776482582,0.0,0.0,47.3979712,8.5461635,4.9670000076293945,-0.00019772428527996982,-0.002367166079302118,1.6937287748193357
6300.0,75.0,15.727001190185547,-0.009999999776482582,0.0,0.0,47.3979712,8.5461635,4.969000339508057,-0.0005571293339111172,-0.002446484067151195,1.6939285119010916
6350.0,75.0,15.727001190185547,-0.009999999776482582,0.0,0.0,47.3979712,8.5461635,4.970000267028809,-0.0006737400294368725,-0.002464106703426953,1.6940378346638394
6400.0,75.0,15.727001190185547,-0.009999999776482582,0.0,0.0,47.3979712,8.5461635,4.9710001945495605,-0.0007136851701377156,-0.0024548191891996273,1.6940853720892974
6450.0,75.0,15.727001190185547,-0.009999999776482582,0.0,0.0,47.3979712,8.5461635,4.9720001220703125,-0.0007372518701345712,-0.0024576948310133973,1.6940366362413488
6500.0,75.0,15.727001190185547,-0.009999999776482582,0.0,0.0,47.3979712,8.5461635,4.9730000495910645,-0.0007422209152104821,-0.002399789542581263,1.6938914939619396
6550.0,75.0,15.727001190185547,-0.009999999776482582,0.0,0.0,47.3979712,8.5461635,4.9730000495910645,-0.0007474222066587992,-0.0023892497704780845,1.693774581190085
6600.0,75.0,15.727001190185547,-0.009999999776482582,0.0,0.0,47.3979712,8.5461635,4.974000453948975,-0.0007383807227431151,-0.002309185369315675,1.6935352961661414
6650.0,75.0,15.727001190185547,-0.009999999776482582,0.0,0.0,47.3979712,8.5461635,4.974000453948975,-0.0007218967568816767,-0.002243491114918035,1.6933155853762099
6700.0,75.0,15.727001190185547,-0.009999999776482582,0.0,0.0,47.3979712,8.5461635,4.974000453948975,-0.000744817432254728,-0.0020411330041126955,1.6930004002611991
6750.0,75.0,15.727001190185547,-0.009999999776482582,0.0,0.0,47.3979712,8.5461635,4.974000453948975,-0.0007027468341311631,-0.0018123404187450679,1.6926567193225244
6800.0,75.0,15.727001190185547,-0.009999999776482582,0.0,0.0,47.3979712,8.5461635,4.974000453948975,-0.0006697455478760788,-0.0015090652774197011,1.6922516525207234
6850.0,75.0,15.727001190185547,0.0,0.009999999776482582,0.0,47.3979712,8.5461636,4.9730000495910645,-0.0004102842828761131,-0.0005016438420192538,1.691046438969408
6900.0,75.0,15.727001190185547,0.0,0.009999999776482582,0.0,47.3979712,8.5461636,4.9730000495910645,-0.0004102842828761131,-0.0005016438420192538,1.691046438969408
6950.0,75.0,15.727001190185547,0.0,0.009999999776482582,0.0,47.3979712,8.5461636,4.9730000495910645,-0.00040462327754870896,-0.0004469833709055156,1.6909898467962439
7000.0,75.0,15.727001190185547,0.0,0.009999999776482582,0.0,47.3979712,8.5461636,4.9730000495910645,-0.00031108585600631803,-2.0445294041260715e-05,1.6906321842618461
7050.0,75.0,15.727001190185547,0.0,0.009999999776482582,0.0,47.3979712,8.5461637,4.9730000495910645,-0.00018486754352284768,0.0003710185213312818,1.6903325786392123
7100.0,75.0,15.727001190185547,0.0,0.009999999776482582,0.0,47.3979712,8.5461637,4.9730000495910645,5.2245754150131794e-05,0.0007453371257750651,1.6901103378462452
7150.0,75.0,15.727001190185547,0.0,0.009999999776482582,0.0,47.3979712,8.5461637,4.9730000495910645,0.00025788308523069765,0.0011007071049960418,1.6900139314147842
7200.0,75.0,15.727001190185547,0.0,0.009999999776482582,0.0,47.3979712,8.5461637,4.9730000495910645,0.000450644339653527,0.0014398923988853075,1.6900267145880166
7250.0,75.0,15.727001190185547,0.0,0.009999999776482582,0.0,47.3979712,8.5461637,4.9730000495910645,0.0005519103574086864,0.0017409908481458873,1.6901522826334139
7300.0,75.0,15.727001190185547,0.0,0.009999999776482582,0.0,47.3979712,8.5461638,4.9730000495910645,0.0005846214007168439,0.002047678554729406,1.6903879723898858
7350.0,75.0,15.727001190185547,0.0,0.0,0.0,47.3979712,8.5461638,4.9730000495910645,0.0005299390508504981,0.002265434365958392,1.6906243279366304
7400.0,75.0,15.727001190185547,0.0,0.0,0.0,47.3979712,8.5461638,4.9720001220703125,0.0004665372866109415,0.002417005942761055,1.690899831951399
7450.0,75.0,15.727001190185547,0.0,0.0,0.0,47.3979712,8.5461638,4.9720001220703125,0.00044791040583770186,0.002513517444249305,1.6911854559783102
7500.0,75.0,15.727001190185547,0.0,0.0,0.0,47.3979712,8.5461638,4.9710001945495605,0.0004419882533785032,0.002556202402947581,1.691465221050823
7550.0,75.0,15.727001190185547,0.0,0.0,0.0,47.3979712,8.5461638,4.9710001945495605,0.00039484103693626535,0.0025319962452036325,1.691738195062556
7600.0,75.0,15.727001190185547,0.0,0.0,0.0,47.3979712,8.5461638,4.969000339508057,0.0003562254612044416,0.002489672009594413,1.6920167617125783
7650.0,75.0,15.727001190185547,0.0,0.0,0.0,47.3979712,8.5461638,4.969000339508057,0.00038355342111096513,0.0023283824955562128,1.6922528509432138
7700.0,75.0,15.727001190185547,0.0,0.0,0.0,47.3979712,8.5461638,4.968000411987305,0.00032902142671387727,0.002079326349177552,1.692496263866847
7750.0,75.0,15.727001190185547,0.0,0.0,0.0,47.3979712,8.5461638,4.9670000076293945,0.0002921047540021518,0.0018308617418515657,1.6926591161675055
7800.0,75.0,15.727001190185547,0.0,0.0,0.0,47.3979712,8.5461638,4.966000080108643,0.000250732601733565,0.0016081811632005349,1.6927999973891705
7850.0,75.0,15.727001190185547,0.0,0.0,0.0,47.3979712,8.5461637,4.964000225067139,3.805960997044359e-05,0.0007890140729682467,1.6930982714312595
7900.0,75.0,15.727001190185547,0.0,0.0,0.0,47.3979712,8.5461637,4.964000225067139,3.805960997044359e-05,0.0007890140729682467,1.6930982714312595
7950.0,75.0,15.727001190185547,0.0,0.0,0.0,47.3979712,8.5461637,4.964000225067139,3.2263668736703037e-05,0.0007126005951830375,1.693108657759511
8000.0,75.0,15.727001190185547,0.0,0.0,0.0,47.3979712,8.5461637,4.964000225067139,-4.591711771162475e-06,0.0004340966555824138,1.693132759367376
8050.0,75.0,15.727001190185547,0.0,-0.009999999776482582,0.0,47.3979712,8.5461637,4.964000225067139,-1.9055227250510395e-05,0.00010410908525969782,1.6931198430360892
8100.0,72.0,15.667000770568848,0.0,-0.009999999776482582,0.0,47.3979712,8.5461637,4.963000297546387,-2.1721759147663945e-05,-0.00021491240237689555,1.6930890835254988
8150.0,72.0,15.667000770568848,0.0,-0.009999999776482582,0.0,47.3979712,8.5461637,4.963000297546387,2.7186705006816978e-05,-0.00045422400266562177,1.693009055534742
8200.0,72.0,15.667000770568848,0.0,-0.009999999776482582,0.0,47.3979712,8.5461637,4.963000297546387,-7.66231230892061e-06,-0.0006785859943383809,1.6929055917263922
8250.0,72.0,15.667000770568848,0.0,-0.009999999776482582,0.0,47.3979712,8.5461637,4.963000297546387,2.8774384600362305e-06,-0.0008221455264230949,1.692810650033531
8300.0,72.0,15.667000770568848,0.0,0.0,0.0,47.3979712,8.5461637,4.962000370025635,1.4680472325995236e-05,-0.0009177218656564965,1.692692006206968
8350.0,72.0,15.667000770568848,0.0,0.0,0.0,47.3979712,8.5461637,4.962000370025635,4.904326392816273e-05,-0.000985830715107903,1.6925925371402535
8400.0,72.0,15.667000770568848,0.0,0.0,0.0,47.3979712,8.5461637,4.962000370025635,0.000120164416123911,-0.0009559277593075442,1.6924979949215557
8450.0,72.0,15.667000770568848,0.0,0.0,0.0,47.3979712,8.5461637,4.962000370025635,0.00023586797240335796,-0.0008142678751126946,1.692409844289474
8500.0,72.0,15.667000770568848,0.0,0.0,-0.009999999776482582,47.3979711,8.5461637,4.962000370025635,0.00022959054216128663,-0.0006775642273332394,1.692305981006961
8550.0,72.0,15.667000770568848,0.0,0.0,-0.009999999776482582,47.3979711,8.5461637,4.962000370025635,0.0002770958972039744,-0.0004350940406195675,1.6922081098369006
8600.0,72.0,15.667000770568848,0.0,0.0,-0.009999999776482582,47.3979711,8.5461637,4.962000370025635,0.0003310855065958513,-0.0002356859041210705,1.692141131335485
8650.0,72.0,15.667000770568848,0.0,0.0,-0.009999999776482582,47.3979711,8.5461637,4.962000370025635,0.00040588177720836654,-5.078321399136844e-05,1.6920789465240316
8700.0,72.0,15.667000770568848,0.0,0.0,-0.009999999776482582,47.3979711,8.5461637,4.963000297546387,0.00042914906663833226,0.00012004603354200764,1.692035670156318
8750.0,72.0,15.667000770568848,0.0,0.0,-0.009999999776482582,47.3979711,8.5461637,4.963000297546387,0.000453503531766228,0.0002064046234858188,1.6920091717034715
8800.0,72.0,15.667000770568848,0.0,0.0,0.0,47.3979711,8.5461637,4.963000297546387,0.00048313828591872135,0.0002543038448393813,1.691993725369149
8850.0,72.0,15.667000770568848,0.0,0.0,0.0,47.3979711,8.5461637,4.965000152587891,0.0003675972435832356,0.0001684628028027242,1.6920115685484527
8900.0,72.0,15.667000770568848,0.0,0.0,0.0,47.3979711,8.5461637,4.965000152587891,0.0003675972435832356,0.0001684628028027242,1.6920115685484527
8950.0,72.0,15.667000770568848,0.0,0.0,0.0,47.3979711,8.5461637,4.965000152587891,0.0003465244288000426,0.00015124207888727616,1.692016894870633
9000.0,72.0,15.667000770568848,0.0,0.0,0.0,47.3979711,8.5461637,4.965000152587891,0.00023013755974041525,6.728560855694433e-05,1.692059505448074
9050.0,72.0,15.667000770568848,0.0,0.0,0.0,47.3979711,8.5461637,4.966000080108643,9.778011966462295e-05,-4.53861475310934e-05,1.6920966565452806
9100.0,72.0,15.667000770568848,0.0,0.0,0.0,47.3979711,8.5461637,4.966000080108643,-3.2727996903231765e-05,-8.680874609144699e-05,1.6921508518734638
9150.0,72.0,15.667000770568848,0.0,0.0,0.0,47.3979711,8.5461638,4.9670000076293945,-0.0001225604158634254,-2.423891694977099e-05,1.6922208930101328
9200.0,72.0,15.667000770568848,0.0,0.0,0.0,47.3979711,8.5461638,4.9670000076293945,-0.0002080664984238663,8.506988102581674e-05,1.6923340773564612
9250.0,72.0,15.667000770568848,0.0,0.0,0.0,47.3979711,8.5461638,4.968000411987305,-0.0002188961721264199,0.00017890429932026692,1.6923999905934408
9300.0,72.0,15.667000770568848,0.0,0.0,0.0,47.3979711,8.5461638,4.968000411987305,-0.00019410705778252852,0.0004990743727048289,1.6924940001799205
9350.0,72.0,15.667000770568848,0.0,0.0,0.0,47.3979711,8.5461638,4.969000339508057,-0.00018877706205252655,0.0007371282047929373,1.6925523234077933
9400.0,72.0,15.667000770568848,0.0,0.0,0.0,47.3979711,8.5461638,4.970000267028809,-0.00022589196016399273,0.00110168121338109,1.6926351477176946
9450.0,72.0,15.667000770568848,0.0,0.0,0.0,47.3979711,8.5461638,4.9710001945495605,-0.00022305983203575814,0.00141541537373166,1.6926338161371497
9500.0,72.0,15.667000770568848,0.0,0.0,0.0,47.3979711,8.5461638,4.9720001220703125,-0.00028204950036682624,0.0016700970578016252,1.6926014587299052
9550.0,72.0,15.667000770568848,0.0,0.0,0.0,47.3979711,8.5461638,4.9730000495910645,-0.0003504732348074725,0.0018123012775591249,1.6925579160460824
9600.0,72.0,15.667000770568848,0.0,0.0,0.0,47.3979711,8.5461638,4.975000381469727,-0.0004095846504320263,0.001912176450332389,1.6925007912407002
9650.0,72.0,15.667000770568848,0.0,0.0,0.0,47.3979711,8.5461638,4.9760003089904785,-0.0004929368461950715,0.0019634752007185526,1.6924223611465974
9700.0,72.0,15.667000770568848,0.0,0.0,0.0,47.3979711,8.5461638,4.979000091552734,-0.0005517164069806662,0.0019131934709810954,1.6923461947394212
9750.0,72.0,15.667000770568848,0.0,0.0,0.0,47.3979711,8.5461638,4.980000019073486,-0.000603864365057199,0.0018151555932782283,1.692272691493335
9800.0,72.0,15.667000770568848,0.0,0.0,0.0,47.3979711,8.5461638,4.982000350952148,-0.0006733171485840923,0.0016490586053386496,1.692187337180398
9850.0,72.0,15.667000770568848,0.0,-0.009999999776482582,0.0,47.397971,8.5461638,4.984000205993652,-0.0009414180176487221,0.001039904003413914,1.6919098357948117
9900.0,72.0,15.667000770568848,0.0,-0.009999999776482582,0.0,47.397971,8.5461638,4.984000205993652,-0.0009414180176487221,0.001039904003413914,1.6919098357948117
9950.0,72.0,15.667000770568848,0.0,-0.009999999776482582,0.0,47.397971,8.5461637,4.985000133514404,-0.0010401056260345278,0.000720145351357178,1.6918091683056067
10000.0,72.0,15.667000770568848,0.0,-0.009999999776482582,0.0,47.397971,8.5461637,4.986000061035156,-0.0011687495704759403,0.000491196948959463,1.691720218725198
10050.0,69.0,15.607000350952148,0.0,-0.009999999776482582,0.009999999776482582,47.397971,8.5461637,4.986000061035156,-0.0013812292538695318,0.0002447812396767169,1.6916452507405122
10100.0,69.0,15.607000350952148,0.0,-0.009999999776482582,0.009999999776482582,47.397971,8.5461637,4.986000061035156,-0.0016486025650094061,3.360217579248185e-05,1.691584930141822
10150.0,69.0,15.607000350952148,0.0,-0.009999999776482582,0.009999999776482582,47.397971,8.5461637,4.986000061035156,-0.0018631590719269066,-0.0001918449963204937,1.6915222126981506
10200.0,69.0,15.607000350952148,0.0,-0.009999999776482582,0.009999999776482582,47.397971,8.5461636,4.985000133514404,-0.002057421589137325,-0.0004601553227447839,1.6914781373821097
10250.0,69.0,15.607000350952148,0.0,-0.009999999776482582,0.009999999776482582,47.397971,8.5461636,4.985000133514404,-0.002234622840502936,-0.0007519064731925315,1.6914634899961143
10300.0,69.0,15.607000350952148,0.0,-0.009999999776482582,0.009999999776482582,47.397971,8.5461636,4.984000205993652,-0.002405537705316901,-0.0010388704680455573,1.6914664194733136
10350.0,69.0,15.607000350952148,0.0,-0.009999999776482582,0.009999999776482582,47.397971,8.5461636,4.9830002784729,-0.0025001979977583564,-0.0013192890423190352,1.691514090056826
10400.0,69.0,15.607000350952148,0.0,-0.009999999776482582,0.009999999776482582,47.397971,8.5461636,4.982000350952148,-0.0024636944856215063,-0.0015479894313383783,1.6915834654032225
10450.0,69.0,15.607000350952148,0.0,-0.009999999776482582,0.009999999776482582,47.397971,8.5461635,4.9810004234313965,-0.002463129084038515,-0.0017950119265311138,1.6916412559988772
10500.0,69.0,15.607000350952148,0.0,-0.009999999776482582,0.009999999776482582,47.397971,8.5461635,4.979000091552734,-0.0024561083776296587,-0.0020940542281766383,1.691757502980459
10550.0,69.0,15.607000350952148,0.0,-0.009999999776482582,0.0,47.397971,8.5461635,4.978000164031982,-0.0024242828223802362,-0.0022517648594257192,1.6918300741201637
10600.0,69.0,15.607000350952148,0.009999999776482582,-0.009999999776482582,0.0,47.397971,8.5461635,4.9770002365112305,-0.002230387270042679,-0.0024470817179505114,1.6918367320228889
10650.0,69.0,15.607000350952148,0.009999999776482582,-0.009999999776482582,0.0,47.397971,8.5461635,4.9760003089904785,-0.0020161388211633814,-0.002605099496977657,1.6918001135579004
10700.0,69.0,15.607000350952148,0.009999999776482582,-0.009999999776482582,0.0,47.397971,8.5461634,4.975000381469727,-0.001812576046083702,-0.002799095698079068,1.6917424561203
10750.0,69.0,15.607000350952148,0.009999999776482582,0.0,0.0,47.397971,8.5461634,4.974000453948975,-0.0016433190250557436,-0.0030219440246698546,1.6917095660808377
10800.0,69.0,15.607000350952148,0.009999999776482582,0.0,0.0,47.397971,8.5461634,4.9720001220703125,-0.0011363209028663719,-0.0036537108538179505,1.6917360645336839
10850.0,69.0,15.607000350952148,0.009999999776482582,0.0,0.0,47.397971,8.5461634,4.9720001220703125,-0.0010878318654525395,-0.0037093651989654522,1.6917507119196793
10900.0,69.0,15.607000350952148,0.009999999776482582,0.0,0.0,47.397971,8.5461634,4.9720001220703125,-0.0010588290919102898,-0.0037311680098701997,1.6917610982479308
10950.0,69.0,15.607000350952148,0.009999999776482582,0.0,0.0,47.397971,8.5461634,4.9720001220703125,-0.0008770023536523614,-0.003855423460148136,1.6917978498709738
11000.0,69.0,15.607000350952148,0.009999999776482582,0.0,0.0,47.397971,8.5461633,4.9720001220703125,-0.000602329276352688,-0.003975463885837506,1.6918487162477944
11050.0,69.0,15.607000350952148,0.009999999776482582,0.0,0.0,47.3979711,8.5461633,4.9710001945495605,-0.0003507889000196877,-0.003985237218904312,1.6918942563024346
11100.0,69.0,15.607000350952148,0.009999999776482582,0.0,0.0,47.3979711,8.5461633,4.9710001945495605,-0.00010251066032967722,-0.003971954702967542,1.6919457884695277
11150.0,69.0,15.607000350952148,0.009999999776482582,0.0,0.0,47.3979711,8.5461633,4.9710001945495605,0.00013552583617919178,-0.003965144396687775,1.6919605690135777
11200.0,69.0,15.607000350952148,0.009999999776482582,0.0,0.0,47.3979711,8.5461633,4.970000267028809,0.00031547912903551986,-0.003960392578691989,1.692006109068218
11250.0,69.0,15.607000350952148,0.009999999776482582,0.0,0.0,47.3979711,8.5461633,4.970000267028809,0.0004998066444767287,-0.003943864855325336,1.6920483201714958
11300.0,69.0,15.607000350952148,0.009999999776482582,0.0,0.0,47.3979711,8.5461633,4.969000339508057,0.0006783504970369096,-0.0039347958035311804,1.6920998523385888
11350.0,69.0,15.607000350952148,0.009999999776482582,0.0,0.0,47.3979711,8.5461633,4.969000339508057,0.0008023081622124884,-0.003926718415139024,1.6921643008369687
11400.0,69.0,15.607000350952148,0.009999999776482582,0.0,0.0,47.3979711,8.5461633,4.969000339508057,0.0008689606604613392,-0.003929621884905591,1.6922083761530096
11450.0,69.0,15.607000350952148,0.009999999776482582,0.0,0.0,47.3979711,8.546163199999999,4.968000411987305,0.0008589179554122047,-0.003925007906302163,1.6922741562319346
11500.0,69.0,15.607000350952148,0.009999999776482582,0.0,0.0,47.3979711,8.546163199999999,4.968000411987305,0.0007874897773482315,-0.0039070734409104866,1.6923396699947504
11550.0,69.0,15.607000350952148,0.009999999776482582,0.0,0.0,47.3979711,8.546163199999999,4.968000411987305,0.0006854322558936073,-0.0038792423672218573,1.6924078469186565
11600.0,69.0,15.607000350952148,0.009999999776482582,0.0,0.0,47.3979711,8.546163199999999,4.969000339508057,0.0005860925111373551,-0.003839254379275937,1.6924200974596708
11650.0,69.0,15.607000350952148,0.009999999776482582,0.009999999776482582,0.0,47.3979711,8.546163199999999,4.969000339508057,0.00048603733442175974,-0.0037320722882989306,1.6924451311739175
11700.0,69.0,15.607000350952148,0.009999999776482582,0.009999999776482582,0.0,47.3979711,8.546163199999999,4.969000339508057,0.00036729341175281715,-0.003618485346915149,1.6924387395873013
11750.0,69.0,15.607000350952148,0.009999999776482582,0.009999999776482582,0.0,47.3979711,8.546163199999999,4.970000267028809,0.00033454091909908035,-0.003482011864913498,1.6924166353502537
11800.0,69.0,15.607000350952148,0.009999999776482582,0.009999999776482582,0.0,47.3979711,8.5461633,4.9720001220703125,0.00034199321885061115,-0.003005090168099396,1.6922520519948867
11850.0,69.0,15.607000350952148,0.009999999776482582,0.009999999776482582,0.0,47.3979711,8.5461633,4.9720001220703125,0.00034192026800239166,-0.0029567709592199214,1.6922323446028202
11900.0,69.0,15.607000350952148,0.009999999776482582,0.009999999776482582,0.0,47.3979711,8.5461633,4.9730000495910645,0.0003842110515515317,-0.0027974996219452966,1.6921460581835017
11950.0,69.0,15.607000350952148,0.009999999776482582,0.009999999776482582,0.0,47.3979711,8.5461633,4.9730000495910645,0.0005377946283525469,-0.0026109105976999942,1.6920274143569387
12000.0,65.0,15.547000885009766,0.009999999776482582,0.009999999776482582,0.0,47.3979711,8.5461633,4.974000453948975,0.0006196839710549062,-0.002492343753137224,1.6919286110804967
12050.0,65.0,15.547000885009766,0.009999999776482582,0.009999999776482582,0.0,47.3979711,8.5461633,4.975000381469727,0.0007632065725854414,-0.002422081813366043,1.6918255467463106
12100.0,65.0,15.547000885009766,0.009999999776482582,0.009999999776482582,0.0,47.3979711,8.5461633,4.9760003089904785,0.0008813920831688824,-0.0023053630569581656,1.6917122292419278
12150.0,65.0,15.547000885009766,0.009999999776482582,0.009999999776482582,0.0,47.3979711,8.5461633,4.9770002365112305,0.0009774439683059178,-0.0022590087096056,1.6916112954366138
12200.0,65.0,15.547000885009766,0.009999999776482582,0.009999999776482582,0.0,47.3979711,8.5461633,4.978000164031982,0.0010123311835302119,-0.002249497271384274,1.6915473795704519
12250.0,65.0,15.547000885009766,0.0,0.009999999776482582,0.0,47.3979711,8.5461633,4.978000164031982,0.0010444090758936627,-0.00223261064544884,1.6914925184519962
12300.0,65.0,15.547000885009766,0.0,0.009999999776482582,0.0,47.3979711,8.5461633,4.978000164031982,0.0010839301003886808,-0.00223905372678142,1.6914096941420949
12350.0,65.0,15.547000885009766,0.009999999776482582,0.019999999552965164,0.0,47.3979711,8.5461633,4.979000091552734,0.0010734929926253759,-0.002247047111166536,1.6913405851118073
12400.0,65.0,15.547000885009766,0.009999999776482582,0.019999999552965164,0.0,47.3979711,8.5461633,4.979000091552734,0.0010852187686700618,-0.0021838308449394304,1.691217147595282
12450.0,65.0,15.547000885009766,0.009999999776482582,0.019999999552965164,0.0,47.3979712,8.5461633,4.979000091552734,0.001139414226890337,-0.002054725398607945,1.6910886500726856
12500.0,65.0,15.547000885009766,0.009999999776482582,0.019999999552965164,0.0,47.3979712,8.5461633,4.979000091552734,0.001237981485882155,-0.0018320082795142234,1.690997836279514
12550.0,65.0,15.547000885009766,0.009999999776482582,0.019999999552965164,0.0,47.3979712,8.5461633,4.979000091552734,0.0013797959842633378,-0.0016525528339349153,1.6909598862339803
12600.0,65.0,15.547000885009766,0.009999999776482582,0.019999999552965164,0.0,47.3979712,8.5461634,4.979000091552734,0.001567318155187469,-0.0014505048617623807,1.6908962366839275
12650.0,65.0,15.547000885009766,0.0,0.019999999552965164,0.0,47.3979712,8.5461634,4.978000164031982,0.0017826101522966438,-0.001255623627732304,1.6908702708632992
12700.0,65.0,15.547000885009766,0.0,0.019999999552965164,0.0,47.3979712,8.5461634,4.978000164031982,0.0019902806713057433,-0.0009672025664723282,1.6908692055988632
12750.0,65.0,15.547000885009766,0.0,0.019999999552965164,0.0,47.3979712,8.5461634,4.9760003089904785,0.0024645262033135057,-0.00022137186839196372,1.6911327253887265
12800.0,65.0,15.547000885009766,0.0,0.019999999552965164,0.0,47.3979712,8.5461635,4.9760003089904785,0.0024999074947371046,-0.00017077707418554355,1.6911742707017317
12850.0,65.0,15.547000885009766,0.0,0.019999999552965164,0.0,47.3979712,8.5461635,4.9760003089904785,0.0025236608630808746,-0.00013538076346966446,1.6912006359965235
12900.0,65.0,15.547000885009766,0.0,0.019999999552965164,0.0,47.3979712,8.5461635,4.975000381469727,0.0026189250481054513,3.92755021410425e-05,1.6913586946072197
12950.0,65.0,15.547000885009766,0.0,0.019999999552965164,0.0,47.3979712,8.5461635,4.975000381469727,0.0027168979072270177,0.00019325815893042044,1.6915155547954255
13000.0,65.0,15.547000885009766,0.0,0.019999999552965164,0.0,47.397971299999995,8.5461635,4.974000453948975,0.0028098671964060028,0.0002617535438476601,1.6916461828468938
13050.0,65.0,15.547000885009766,0.0,0.019999999552965164,0.0,47.397971299999995,8.5461635,4.974000453948975,0.002939020626450488,0.00037835092681889394,1.6918228835852205
13100.0,65.0,15.547000885009766,0.0,0.019999999552965164,0.0,47.397971299999995,8.5461635,4.974000453948975,0.002994748572632022,0.00045406493470646946,1.6919082378981576
13150.0,65.0,15.547000885009766,0.0,0.009999999776482582,0.0,47.397971299999995,8.5461635,4.9730000495910645,0.0030468666871797377,0.0005335330179504791,1.6919966548463483
13200.0,65.0,15.547000885009766,0.0,0.009999999776482582,0.0,47.397971299999995,8.5461635,4.9730000495910645,0.00310668482227374,0.0005735575788483809,1.6920844060042664
13250.0,65.0,15.547000885009766,0.0,0.009999999776482582,0.0,47.397971299999995,8.5461635,4.9730000495910645,0.003110930275558355,0.0005930439077385447,1.6921568439859165
13300.0,65.0,15.547000885009766,0.0,0.009999999776482582,0.0,47.397971299999995,8.5461635,4.9720001220703125,0.0030860354410012685,0.0005966668731257859,1.6922331435511473
13350.0,65.0,15.547000885009766,0.0,0.009999999776482582,0.0,47.397971299999995,8.5461636,4.9720001220703125,0.0030950514376330827,0.0005821285883097728,1.69228880361793
13400.0,65.0,15.547000885009766,0.0,0.009999999776482582,0.0,47.397971299999995,8.5461636,4.9720001220703125,0.0030658326073451704,0.000578719078924942,1.6923267536634636
13450.0,65.0,15.547000885009766,0.0,0.009999999776482582,0.0,47.397971299999995,8.5461636,4.9710001945495605,0.003054348245292854,0.0005157099618978608,1.6923741579308669
13500.0,65.0,15.547000885009766,0.0,0.009999999776482582,0.0,47.397971299999995,8.5461636,4.970000267028809,0.003096494069914984,0.00043936605399464345,1.6924019879642582
13550.0,65.0,15.547000885009766,0.0,0.009999999776482582,0.0,47.397971299999995,8.5461636,4.969000339508057,0.003088257516035803,0.00040052583906442557,1.6924200974596708
13600.0,65.0,15.547000885009766,0.0,0.009999999776482582,0.0,47.397971299999995,8.5461636,4.968000411987305,0.003074367466475359,0.00034425124916060535,1.6924588464535315
13650.0,65.0,15.547000885009766,0.0,0.0,0.0,47.397971299999995,8.5461636,4.9670000076293945,0.003022531012421838,0.0002993411595544734,1.6924637733015482
13700.0,65.0,15.547000885009766,0.0,0.0,0.0,47.397971299999995,8.5461636,4.966000080108643,0.002865901250068301,0.00021170474317771306,1.6925034544017903
13750.0,65.0,15.547000885009766,-0.009999999776482582,0.0,0.0,47.3979712,8.5461636,4.963000297546387,0.0017779293345916393,0.00017259938247295067,1.692490671228558
13800.0,65.0,15.547000885009766,-0.009999999776482582,0.0,0.0,47.3979712,8.5461636,4.963000297546387,0.0017779293345916393,0.00017259938247295067,1.692490671228558
13850.0,65.0,15.547000885009766,-0.009999999776482582,0.0,0.0,47.3979712,8.5461636,4.963000297546387,0.0013481109991866876,0.00019511161111827064,1.6924290190493225
13900.0,65.0,15.547000885009766,-0.009999999776482582,0.0,-0.009999999776482582,47.3979712,8.5461636,4.963000297546387,0.0009532515945012048,0.0002715423675914604,1.6923505889552197
13950.0,62.0,15.487000465393066,-0.009999999776482582,0.0,-0.009999999776482582,47.3979712,8.5461636,4.963000297546387,0.0004957375540938925,0.0003886025365697478,1.6922701614902993
14000.0,62.0,15.487000465393066,-0.009999999776482582,0.0,-0.009999999776482582,47.3979712,8.5461636,4.963000297546387,0.00010876585421694371,0.00048112023919230824,1.692196125611995
14050.0,62.0,15.487000465393066,-0.009999999776482582,0.0,-0.009999999776482582,47.3979712,8.5461637,4.963000297546387,-0.0003167950726117567,0.0005662977991160817,1.6920934607519726
14100.0,62.0,15.487000465393066,-0.009999999776482582,0.0,-0.009999999776482582,47.3979711,8.5461637,4.964000225067139,-0.0007230167669631636,0.0006661681605143296,1.6919625663843951
14150.0,62.0,15.487000465393066,-0.009999999776482582,0.0,-0.009999999776482582,47.3979711,8.5461637,4.964000225067139,-0.0011031306075954465,0.0007020890411441432,1.6918567057310645
14200.0,62.0,15.487000465393066,-0.009999999776482582,0.0,-0.009999999776482582,47.3979711,8.5461637,4.965000152587891,-0.001473598031431623,0.0007671797930701497,1.6917327355823213
14250.0,62.0,15.487000465393066,-0.009999999776482582,0.0,-0.009999999776482582,47.3979711,8.5461637,4.965000152587891,-0.0017108007702905043,0.0008830125412706413,1.6916463160049482
14300.0,62.0,15.487000465393066,-0.009999999776482582,0.0,-0.009999999776482582,47.3979711,8.5461637,4.966000080108643,-0.0018739277094362641,0.0010948387879221601,1.6916065017466515
14350.0,62.0,15.487000465393066,-0.009999999776482582,0.0,-0.009999999776482582,47.3979711,8.5461637,4.9670000076293945,-0.0019220431500819423,0.0012836307717390952,1.6916042380597252
14400.0,62.0,15.487000465393066,0.0,0.0,-0.009999999776482582,47.3979711,8.5461637,4.968000411987305,-0.0018910902742307386,0.001403799674145116,1.6916254101903911
14450.0,62.0,15.487000465393066,0.0,0.0,-0.009999999776482582,47.3979711,8.5461637,4.969000339508057,-0.0017732629510116835,0.0015093464177652457,1.6917214171476884
14500.0,62.0,15.487000465393066,0.0,0.0,0.0,47.3979711,8.5461637,4.970000267028809,-0.0016533352675422886,0.0015266065104316713,1.6918132962052963
14550.0,62.0,15.487000465393066,0.0,0.0,0.0,47.3979711,8.5461637,4.9710001945495605,-0.001437460703944659,0.0014665325922388318,1.6919568405880516
14600.0,62.0,15.487000465393066,0.0,0.0,0.0,47.3979711,8.5461637,4.9720001220703125,-0.0013486107320025652,0.0013607989852160436,1.6920645654541453
14650.0,62.0,15.487000465393066,0.0,0.0,0.0,47.3979711,8.5461637,4.9730000495910645,-0.0012339883046929873,0.0011938239863545795,1.692237005134728
14700.0,62.0,15.487000465393066,0.0,0.0,0.0,47.3979711,8.5461636,4.9760003089904785,-0.0013289837029024666,0.0004172688064444756,1.6925338144382172
14750.0,62.0,15.487000465393066,0.0,0.0,0.0,47.3979711,8.5461636,4.9760003089904785,-0.001345767079330795,0.00036215401799389837,1.69254513287285
14800.0,62.0,15.487000465393066,0.0,0.0,0.0,47.3979711,8.5461636,4.9760003089904785,-0.001345767079330795,0.00036215401799389837,1.69254513287285
14850.0,62.0,15.487000465393066,0.0,0.0,0.0,47.3979711,8.5461636,4.9770002365112305,-0.001460732154563828,-9.707057798237972e-06,1.6925788218606395
14900.0,62.0,15.487000465393066,0.0,0.0,0.0,47.3979711,8.5461636,4.978000164031982,-0.001617156068088967,-0.0004642973639758396,1.6925997276751967
14950.0,62.0,15.487000465393066,0.0,0.0,0.0,47.3979711,8.5461636,4.979000091552734,-0.0016534071780932072,-0.0007776054575631457,1.692591072401654
15000.0,62.0,15.487000465393066,0.0,0.0,0.0,47.397971,8.5461636,4.980000019073486,-0.0016522281311398992,-0.0010261281264822338,1.692563375526317
15050.0,62.0,15.487000465393066,0.0,0.0,0.0,47.397971,8.5461636,4.9810004234313965,-0.0016493865590627307,-0.0013389210128313127,1.692525292322729
15100.0,62.0,15.487000465393066,0.0,0.0,0.0,47.397971,8.5461636,4.9810004234313965,-0.0016231451896869054,-0.0015515737756883268,1.6924828149033422
15150.0,62.0,15.487000465393066,0.0,0.0,0.0,47.397971,8.5461636,4.982000350952148,-0.00162137395349511,-0.0016888198084729928,1.6924364759003747
15200.0,62.0,15.487000465393066,0.0,0.0,0.0,47.397971,8.5461636,4.9830002784729,-0.0015714206976303845,-0.0017898112202500284,1.692427820626832
15250.0,62.0,15.487000465393066,0.0,0.0,0.0,47.397971,8.5461636,4.984000205993652,-0.001623571581543076,-0.0017652474603089255,1.6923809489916466
15300.0,62.0,15.487000465393066,0.0,0.0,0.0,47.397971,8.5461636,4.985000133514404,-0.001681702354415161,-0.0017241209970044289,1.6923412678914045
15350.0,62.0,15.487000465393066,0.0,0.0,0.0,47.397971,8.5461636,4.985000133514404,-0.0017273317445862231,-0.0016533718079849795,1.6922877383534938
15400.0,62.0,15.487000465393066,0.0,0.0,0.0,47.397971,8.5461636,4.985000133514404,-0.0018203953107080943,-0.001524202513406657,1.6922078435207915
15450.0,62.0,15.487000465393066,0.0,0.0,0.0,47.397971,8.5461636,4.986000061035156,-0.0019626655893441956,-0.0013563947565558925,1.6921159644631838
15500.0,62.0,15.487000465393066,0.0,0.0,0.0,47.397971,8.5461636,4.986000061035156,-0.0020795820022392266,-0.0011613504559239137,1.6920625680833277
15550.0,62.0,15.487000465393066,0.0,0.0,0.0,47.397971,8.5461636,4.986000061035156,-0.0022092182602684515,-0.0009464241883345556,1.6920278138311022
15600.0,62.0,15.487000465393066,0.0,0.0,0.0,47.3979709,8.5461636,4.986000061035156,-0.0023219360332574048,-0.0007394625018987972,1.6920174275028508
15650.0,62.0,15.487000465393066,0.0,0.0,0.0,47.3979709,8.5461636,4.986000061035156,-0.0024217957316083195,-0.0004483155366177869,1.6920298112019196
15700.0,62.0,15.487000465393066,0.0,0.0,0.009999999776482582,47.3979709,8.5461637,4.987000465393066,-0.002753239393059266,0.00036854388161768406,1.692319962602684
15750.0,62.0,15.487000465393066,0.0,0.0,0.009999999776482582,47.3979709,8.5461637,4.987000465393066,-0.0027558804478317028,0.0004557544750508604,1.6923529858002009
15800.0,62.0,15.487000465393066,0.0,0.0,0.009999999776482582,47.3979709,8.5461637,4.987000465393066,-0.00276287020539586,0.0005049157070674707,1.6923806826755377
15850.0,62.0,15.487000465393066,0.0,0.0,0.009999999776482582,47.3979709,8.5461637,4.987000465393066,-0.0027974803764452315,0.0009000069029952907,1.6925063838789893
15900.0,62.0,15.487000465393066,0.009999999776482582,0.0,0.009999999776482582,47.3979709,8.5461637,4.987000465393066,-0.0027520243258119174,0.0011403286482177509,1.6926055866295948
15950.0,62.0,15.487000465393066,0.009999999776482582,0.0,0.009999999776482582,47.3979709,8.5461637,4.987000465393066,-0.0026393312598838583,0.0014186103868167794,1.6927141104440155
16000.0,59.0,15.427000999450684,0.009999999776482582,0.0,0.009999999776482582,47.3979709,8.5461638,4.986000061035156,-0.002408195404846151,0.0016712082253560552,1.6927906763253553
16050.0,59.0,15.427000999450684,0.009999999776482582,0.0,0.009999999776482582,47.3979709,8.5461638,4.986000061035156,-0.0021658019725677045,0.0018731621806600289,1.6928115821399126
16100.0,59.0,15.427000999450684,0.009999999776482582,0.0,0.009999999776482582,47.397971,8.5461638,4.985000133514404,-0.0019832747891334233,0.0020017226412430513,1.6928274279483984
16150.0,59.0,15.427000999450684,0.009999999776482582,0.0,0.009999999776482582,47.397971,8.5461638,4.984000205993652,-0.0017082768790015713,0.0020461749350182447,1.6928366158541592
16200.0,59.0,15.427000999450684,0.009999999776482582,0.0,0.009999999776482582,47.397971,8.5461638,4.9830002784729,-0.0013337075629082922,0.0020569727008520246,1.6928398116474672
16250.0,59.0,15.427000999450684,0.009999999776482582,0.0,0.009999999776482582,47.397971,8.5461638,4.982000350952148,-0.000931141700836974,0.0020346487009995705,1.6928279605806165
16300.0,59.0,15.427000999450684,0.019999999552965164,0.0,0.0,47.397971,8.5461638,4.9810004234313965,-0.0005241930337280432,0.0019656080702595427,1.6928222347842727
16350.0,59.0,15.427000999450684,0.019999999552965164,0.0,0.0,47.397971,8.5461638,4.980000019073486,-0.00017111492698862764,0.0018881892751702611,1.692798266334462
16400.0,59.0,15.427000999450684,0.019999999552965164,0.0,0.0,47.397971,8.5461638,4.979000091552734,0.0001662732858227757,0.0017370864823387767,1.6926922725230769
16450.0,59.0,15.427000999450684,0.019999999552965164,0.0,0.0,47.397971,8.5461638,4.979000091552734,0.0004754800073016297,0.001541848556371684,1.6925753597512225
16500.0,59.0,15.427000999450684,0.019999999552965164,0.0,0.0,47.397971,8.5461638,4.978000164031982,0.0008303421588933569,0.0013266669608135578,1.69237868530472
16550.0,59.0,15.427000999450684,0.019999999552965164,0.0,0.0,47.3979711,8.5461637,4.978000164031982,0.0010980374420478324,0.001057520202850124,1.6922083761530096
16600.0,59.0,15.427000999450684,0.019999999552965164,0.0,0.0,47.3979711,8.5461637,4.978000164031982,0.0012962885891467278,0.0007117326621412537,1.6920392654237895
16650.0,59.0,15.427000999450684,0.019999999552965164,-0.009999999776482582,0.0,47.3979711,8.5461637,4.9770002365112305,0.0014230010916120197,0.00038048103307017887,1.6918958541990887
16700.0,59.0,15.427000999450684,0.019999999552965164,-0.009999999776482582,0.0,47.3979711,8.5461637,4.9760003089904785,0.0017229630160714624,-0.0005675382236101377,1.691735798217575
16750.0,59.0,15.427000999450684,0.019999999552965164,-0.009999999776482582,0.0,47.3979711,8.5461637,4.9760003089904785,0.0017532438598663414,-0.0006202739496616294,1.6917372629561744
16800.0,59.0,15.427000999450684,0.019999999552965164,-0.009999999776482582,0.0,47.3979711,8.5461637,4.975000381469727,0.001812992034966864,-0.000768041744402454,1.6917419234880822
16850.0,59.0,15.427000999450684,0.019999999552965164,-0.009999999776482582,0.0,47.3979711,8.5461637,4.975000381469727,0.0019739164046524795,-0.0010372942225790828,1.6917863982782864
16900.0,59.0,15.427000999450684,0.019999999552965164,-0.009999999776482582,0.0,47.3979712,8.5461636,4.975000381469727,0.002135779122503427,-0.0012825586153334457,1.6919029115759774
16950.0,59.0,15.427000999450684,0.019999999552965164,-0.009999999776482582,0.0,47.3979712,8.5461636,4.974000453948975,0.002458602750482681,-0.001656270206302205,1.6920778812595956
17000.0,59.0,15.427000999450684,0.019999999552965164,-0.009999999776482582,0.0,47.3979712,8.5461636,4.974000453948975,0.002686772977990098,-0.0018467779004425046,1.6922396682958178
17050.0,59.0,15.427000999450684,0.019999999552965164,-0.009999999776482582,0.0,47.3979712,8.5461636,4.974000453948975,0.0030518702571223195,-0.0020905376331884053,1.6925613781554996
17100.0,59.0,15.427000999450684,0.019999999552965164,0.0,0.0,47.3979712,8.5461636,4.974000453948975,0.0032487452209294027,-0.0021518461242029836,1.6927868147417748
17150.0,59.0,15.427000999450684,0.009999999776482582,0.0,0.0,47.397971299999995,8.5461636,4.974000453948975,0.003580503572313845,-0.0022556560914794074,1.6931270335710324
17200.0,59.0,15.427000999450684,0.009999999776482582,0.0,0.0,47.397971299999995,8.5461636,4.974000453948975,0.0038273148871545153,-0.0022709502823216234,1.6933374232971485
17250.0,59.0,15.427000999450684,0.009999999776482582,0.0,0.0,47.397971299999995,8.5461636,4.975000381469727,0.004095645791959787,-0.0023111523114371854,1.6935270403667622
17300.0,59.0,15.427000999450684,0.009999999776482582,0.0,0.0,47.397971299999995,8.5461636,4.975000381469727,0.0042814010179184885,-0.0022945343422796863,1.693652208937996
17350.0,59.0,15.427000999450684,0.009999999776482582,0.0,0.0,47.397971299999995,8.5461636,4.975000381469727,0.004428650159436278,-0.0022628312820374345,1.6937416911506227
17400.0,59.0,15.427000999450684,0.009999999776482582,0.0,0.0,47.397971299999995,8.5461636,4.9760003089904785,0.004522594207186123,-0.0022754201797488883,1.6937508790563833
